Z_ID,Z_NAME,LATITUDE,LONGITUDE,EXTRACTION,RECHARGE,RATIO,D_ID
1,ANAKAPALLE,17.71571732,82.99753571,300000,1000000,30,1
2,GOLUGONDA,17.67325177,82.46829776,1600000,2000000,80,1
3,MADUGULA,17.8917869,82.77952429,1850000,2000000,92.5,1
4,ARAKU VALLEY,18.31100273,82.91417694,2750000,2000000,137.5,1
5,BAPATLA,15.90593815,80.45355225,300000,1000000,30,2
6,CHEBROLE,16.22545624,80.52242279,1600000,2000000,80,2
7,KAREMPUDI,16.45139503,79.70375061,1850000,2000000,92.5,2
8,MACHERLA,16.50559616,79.36755371,2750000,2000000,137.5,2